# Sample spoofed GnssLogger log (4 of 13 sats spoofed, epochs 30-75)
# Header Description:
Raw,utcTimeMillis,TimeNanos,LeapSecond,TimeUncertaintyNanos,FullBiasNanos,BiasNanos,BiasUncertaintyNanos,DriftNanosPerSecond,DriftUncertaintyNanosPerSecond,HardwareClockDiscontinuityCount,Svid,TimeOffsetNanos,State,ReceivedSvTimeNanos,ReceivedSvTimeUncertaintyNanos,Cn0DbHz,PseudorangeRateMetersPerSecond,PseudorangeRateUncertaintyMetersPerSecond,AccumulatedDeltaRangeState,AccumulatedDeltaRangeMeters,AccumulatedDeltaRangeUncertaintyMeters,CarrierFrequencyHz,CarrierCycles,CarrierPhase,CarrierPhaseUncertainty,MultipathIndicator,SnrInDb,ConstellationType,AgcDb
Raw,1781783982000,1000000000000,18,,-1465818200000000000,0,,,,0,3,0,9,388799923698091,2.0,42.2,406.1377,,,,,1575420000,,,,,,1,40.01
Raw,1781783982000,1000000000000,18,,-1465818200000000000,0,,,,0,6,0,9,388799927761673,2.0,46.8,-439.5802,,,,,1575420000,,,,,,1,40.01
Raw,1781783982000,1000000000000,18,,-1465818200000000000,0,,,,0,7,0,9,388799922679115,2.0,38.9,591.1755,,,,,1575420000,,,,,,1,40.01
Raw,1781783982000,1000000000000,18,,-1465818200000000000,0,,,,0,10,0,9,388799928371035,2.0,48.1,213.3187,,,,,1575420000,,,,,,1,40.01
Raw,1781783982000,1000000000000,18,,-1465818200000000000,0,,,,0,13,0,9,388799932463018,2.0,50.1,21.6142,,,,,1575420000,,,,,,1,40.01
Raw,1781783982000,1000000000000,18,,-1465818200000000000,0,,,,0,17,0,9,388799922852123,2.0,41.3,342.3522,,,,,1575420000,,,,,,1,40.01
Raw,1781783982000,1000000000000,18,,-1465818200000000000,0,,,,0,20,0,9,388799921304351,2.0,40.2,-683.0908,,,,,1575420000,,,,,,1,40.01
Raw,1781783982000,1000000000000,18,,-1465818200000000000,0,,,,0,3,0,9,388799908783229,2.0,37.1,-107.3923,,,,,1575420000,,,,,,6,40.01
Raw,1781783982000,1000000000000,18,,-1465818200000000000,0,,,,0,4,0,9,388799913227864,2.0,42.4,408.6953,,,,,1575420000,,,,,,6,40.01
Raw,1781783982000,1000000000000,18,,-1465818200000000000,0,,,,0,8,0,9,388799918764826,2.0,49.0,-162.4375,,,,,1575420000,,,,,,6,40.01
Raw,1781783982000,1000000000000,18,,-1465818200000000000,0,,,,0,9,0,9,388799914546341,2.0,43.7,229.7572,,,,,1575420000,,,,,,6,40.01
Raw,1781783982000,1000000000000,18,,-1465818200000000000,0,,,,0,13,0,9,388799916924352,2.0,45.4,-2.1250,,,,,1575420000,,,,,,6,40.01
Raw,1781783982000,1000000000000,18,,-1465818200000000000,0,,,,0,18,0,9,388799913717921,2.0,40.5,-568.1039,,,,,1575420000,,,,,,6,40.01
Raw,1781783983000,1001000000000,18,,-1465818200000000000,0,,,,0,3,0,9,388800923696736,2.0,42.4,406.2362,,,,,1575420000,,,,,,1,40.38
Raw,1781783983000,1001000000000,18,,-1465818200000000000,0,,,,0,6,0,9,388800927763139,2.0,47.0,-439.5531,,,,,1575420000,,,,,,1,40.38
Raw,1781783983000,1001000000000,18,,-1465818200000000000,0,,,,0,7,0,9,388800922677145,2.0,41.2,591.1680,,,,,1575420000,,,,,,1,40.38
Raw,1781783983000,1001000000000,18,,-1465818200000000000,0,,,,0,10,0,9,388800928370327,2.0,48.4,213.3137,,,,,1575420000,,,,,,1,40.38
Raw,1781783983000,1001000000000,18,,-1465818200000000000,0,,,,0,13,0,9,388800932462948,2.0,50.1,21.7079,,,,,1575420000,,,,,,1,40.38
Raw,1781783983000,1001000000000,18,,-1465818200000000000,0,,,,0,17,0,9,388800922850977,2.0,40.3,342.5213,,,,,1575420000,,,,,,1,40.38
Raw,1781783983000,1001000000000,18,,-1465818200000000000,0,,,,0,20,0,9,388800921306631,2.0,39.4,-683.1291,,,,,1575420000,,,,,,1,40.38
Raw,1781783983000,1001000000000,18,,-1465818200000000000,0,,,,0,3,0,9,388800908783582,2.0,37.5,-107.2791,,,,,1575420000,,,,,,6,40.38
Raw,1781783983000,1001000000000,18,,-1465818200000000000,0,,,,0,4,0,9,388800913226504,2.0,42.8,408.7350,,,,,1575420000,,,,,,6,40.38
Raw,1781783983000,1001000000000,18,,-1465818200000000000,0,,,,0,8,0,9,388800918765369,2.0,49.2,-162.4543,,,,,1575420000,,,,,,6,40.38
Raw,1781783983000,1001000000000,18,,-1465818200000000000,0,,,,0,9,0,9,388800914545578,2.0,43.5,229.7603,,,,,1575420000,,,,,,6,40.38
Raw,1781783983000,1001000000000,18,,-1465818200000000000,0,,,,0,13,0,9,388800916924362,2.0,46.4,-2.0192,,,,,1575420000,,,,,,6,40.38
Raw,1781783983000,1001000000000,18,,-1465818200000000000,0,,,,0,18,0,9,388800913719818,2.0,41.2,-568.0716,,,,,1575420000,,,,,,6,40.38
Raw,1781783984000,1002000000000,18,,-1465818200000000000,0,,,,0,3,0,9,388801923695379,2.0,41.5,406.2970,,,,,1575420000,,,,,,1,39.80
Raw,1781783984000,1002000000000,18,,-1465818200000000000,0,,,,0,6,0,9,388801927764609,2.0,46.3,-439.4909,,,,,1575420000,,,,,,1,39.80
Raw,1781783984000,1002000000000,18,,-1465818200000000000,0,,,,0,7,0,9,388801922675170,2.0,41.9,591.2480,,,,,1575420000,,,,,,1,39.80
Raw,1781783984000,1002000000000,18,,-1465818200000000000,0,,,,0,10,0,9,388801928369613,2.0,48.7,213.3593,,,,,1575420000,,,,,,1,39.80
Raw,1781783984000,1002000000000,18,,-1465818200000000000,0,,,,0,13,0,9,388801932462872,2.0,51.8,21.7994,,,,,1575420000,,,,,,1,39.80
Raw,1781783984000,1002000000000,18,,-1465818200000000000,0,,,,0,17,0,9,388801922849834,2.0,39.5,342.5718,,,,,1575420000,,,,,,1,39.80
Raw,1781783984000,1002000000000,18,,-1465818200000000000,0,,,,0,20,0,9,388801921308908,2.0,40.6,-683.1300,,,,,1575420000,,,,,,1,39.80
Raw,1781783984000,1002000000000,18,,-1465818200000000000,0,,,,0,3,0,9,388801908783943,2.0,37.0,-107.2180,,,,,1575420000,,,,,,6,39.80
Raw,1781783984000,1002000000000,18,,-1465818200000000000,0,,,,0,4,0,9,388801913225137,2.0,41.6,408.7674,,,,,1575420000,,,,,,6,39.80
Raw,1781783984000,1002000000000,18,,-1465818200000000000,0,,,,0,8,0,9,388801918765907,2.0,49.7,-162.4942,,,,,1575420000,,,,,,6,39.80
Raw,1781783984000,1002000000000,18,,-1465818200000000000,0,,,,0,9,0,9,388801914544812,2.0,43.7,229.8096,,,,,1575420000,,,,,,6,39.80
Raw,1781783984000,1002000000000,18,,-1465818200000000000,0,,,,0,13,0,9,388801916924368,2.0,45.2,-1.9704,,,,,1575420000,,,,,,6,39.80
Raw,1781783984000,1002000000000,18,,-1465818200000000000,0,,,,0,18,0,9,388801913721712,2.0,41.8,-568.0928,,,,,1575420000,,,,,,6,39.80
Raw,1781783985000,1003000000000,18,,-1465818200000000000,0,,,,0,3,0,9,388802923694027,2.0,41.1,406.3851,,,,,1575420000,,,,,,1,39.94
Raw,1781783985000,1003000000000,18,,-1465818200000000000,0,,,,0,6,0,9,388802927766072,2.0,46.5,-439.3647,,,,,1575420000,,,,,,1,39.94
Raw,1781783985000,1003000000000,18,,-1465818200000000000,0,,,,0,7,0,9,388802922673202,2.0,41.6,591.3468,,,,,1575420000,,,,,,1,39.94
Raw,1781783985000,1003000000000,18,,-1465818200000000000,0,,,,0,10,0,9,388802928368904,2.0,48.0,213.3718,,,,,1575420000,,,,,,1,39.94
Raw,1781783985000,1003000000000,18,,-1465818200000000000,0,,,,0,13,0,9,388802932462801,2.0,51.1,21.8557,,,,,1575420000,,,,,,1,39.94
Raw,1781783985000,1003000000000,18,,-1465818200000000000,0,,,,0,17,0,9,388802922848694,2.0,39.4,342.7184,,,,,1575420000,,,,,,1,39.94
Raw,1781783985000,1003000000000,18,,-1465818200000000000,0,,,,0,20,0,9,388802921311186,2.0,39.3,-683.0702,,,,,1575420000,,,,,,1,39.94
Raw,1781783985000,1003000000000,18,,-1465818200000000000,0,,,,0,3,0,9,388802908784298,2.0,38.5,-107.1359,,,,,1575420000,,,,,,6,39.94
Raw,1781783985000,1003000000000,18,,-1465818200000000000,0,,,,0,4,0,9,388802913223778,2.0,41.6,408.8142,,,,,1575420000,,,,,,6,39.94
Raw,1781783985000,1003000000000,18,,-1465818200000000000,0,,,,0,8,0,9,388802918766452,2.0,47.6,-162.4712,,,,,1575420000,,,,,,6,39.94
Raw,1781783985000,1003000000000,18,,-1465818200000000000,0,,,,0,9,0,9,388802914544046,2.0,42.7,229.7662,,,,,1575420000,,,,,,6,39.94
Raw,1781783985000,1003000000000,18,,-1465818200000000000,0,,,,0,13,0,9,388802916924376,2.0,45.5,-1.7900,,,,,1575420000,,,,,,6,39.94
Raw,1781783985000,1003000000000,18,,-1465818200000000000,0,,,,0,18,0,9,388802913723605,2.0,43.1,-567.9591,,,,,1575420000,,,,,,6,39.94
Raw,1781783986000,1004000000000,18,,-1465818200000000000,0,,,,0,3,0,9,388803923692670,2.0,42.3,406.3984,,,,,1575420000,,,,,,1,40.37
Raw,1781783986000,1004000000000,18,,-1465818200000000000,0,,,,0,6,0,9,388803927767538,2.0,45.8,-439.3347,,,,,1575420000,,,,,,1,40.37
Raw,1781783986000,1004000000000,18,,-1465818200000000000,0,,,,0,7,0,9,388803922671228,2.0,41.4,591.3709,,,,,1575420000,,,,,,1,40.37
Raw,1781783986000,1004000000000,18,,-1465818200000000000,0,,,,0,10,0,9,388803928368189,2.0,47.4,213.3745,,,,,1575420000,,,,,,1,40.37
Raw,1781783986000,1004000000000,18,,-1465818200000000000,0,,,,0,13,0,9,388803932462723,2.0,50.3,21.9626,,,,,1575420000,,,,,,1,40.37
Raw,1781783986000,1004000000000,18,,-1465818200000000000,0,,,,0,17,0,9,388803922847551,2.0,40.2,342.8003,,,,,1575420000,,,,,,1,40.37
Raw,1781783986000,1004000000000,18,,-1465818200000000000,0,,,,0,20,0,9,388803921313463,2.0,38.5,-683.0917,,,,,1575420000,,,,,,1,40.37
Raw,1781783986000,1004000000000,18,,-1465818200000000000,0,,,,0,3,0,9,388803908784656,2.0,38.5,-107.0193,,,,,1575420000,,,,,,6,40.37
Raw,1781783986000,1004000000000,18,,-1465818200000000000,0,,,,0,4,0,9,388803913222410,2.0,41.8,408.8366,,,,,1575420000,,,,,,6,40.37
Raw,1781783986000,1004000000000,18,,-1465818200000000000,0,,,,0,8,0,9,388803918766991,2.0,49.3,-162.5436,,,,,1575420000,,,,,,6,40.37
Raw,1781783986000,1004000000000,18,,-1465818200000000000,0,,,,0,9,0,9,388803914543280,2.0,44.1,229.7936,,,,,1575420000,,,,,,6,40.37
Raw,1781783986000,1004000000000,18,,-1465818200000000000,0,,,,0,13,0,9,388803916924382,2.0,48.1,-1.7751,,,,,1575420000,,,,,,6,40.37
Raw,1781783986000,1004000000000,18,,-1465818200000000000,0,,,,0,18,0,9,388803913725501,2.0,42.7,-568.0231,,,,,1575420000,,,,,,6,40.37
Raw,1781783987000,1005000000000,18,,-1465818200000000000,0,,,,0,3,0,9,388804923691312,2.0,42.6,406.5016,,,,,1575420000,,,,,,1,40.23
Raw,1781783987000,1005000000000,18,,-1465818200000000000,0,,,,0,6,0,9,388804927769003,2.0,45.8,-439.3073,,,,,1575420000,,,,,,1,40.23
Raw,1781783987000,1005000000000,18,,-1465818200000000000,0,,,,0,7,0,9,388804922669256,2.0,41.2,591.3693,,,,,1575420000,,,,,,1,40.23
Raw,1781783987000,1005000000000,18,,-1465818200000000000,0,,,,0,10,0,9,388804928367480,2.0,47.1,213.4144,,,,,1575420000,,,,,,1,40.23
Raw,1781783987000,1005000000000,18,,-1465818200000000000,0,,,,0,13,0,9,388804932462652,2.0,51.2,22.0531,,,,,1575420000,,,,,,1,40.23
Raw,1781783987000,1005000000000,18,,-1465818200000000000,0,,,,0,17,0,9,388804922846404,2.0,41.7,342.9091,,,,,1575420000,,,,,,1,40.23
Raw,1781783987000,1005000000000,18,,-1465818200000000000,0,,,,0,20,0,9,388804921315744,2.0,37.8,-683.0631,,,,,1575420000,,,,,,1,40.23
Raw,1781783987000,1005000000000,18,,-1465818200000000000,0,,,,0,3,0,9,388804908785017,2.0,38.9,-106.9901,,,,,1575420000,,,,,,6,40.23
Raw,1781783987000,1005000000000,18,,-1465818200000000000,0,,,,0,4,0,9,388804913221047,2.0,43.5,408.9171,,,,,1575420000,,,,,,6,40.23
Raw,1781783987000,1005000000000,18,,-1465818200000000000,0,,,,0,8,0,9,388804918767539,2.0,48.0,-162.4171,,,,,1575420000,,,,,,6,40.23
Raw,1781783987000,1005000000000,18,,-1465818200000000000,0,,,,0,9,0,9,388804914542517,2.0,43.8,229.8432,,,,,1575420000,,,,,,6,40.23
Raw,1781783987000,1005000000000,18,,-1465818200000000000,0,,,,0,13,0,9,388804916924387,2.0,43.5,-1.6401,,,,,1575420000,,,,,,6,40.23
Raw,1781783987000,1005000000000,18,,-1465818200000000000,0,,,,0,18,0,9,388804913727397,2.0,40.7,-567.9256,,,,,1575420000,,,,,,6,40.23
Raw,1781783988000,1006000000000,18,,-1465818200000000000,0,,,,0,3,0,9,388805923689956,2.0,42.0,406.5190,,,,,1575420000,,,,,,1,40.17
Raw,1781783988000,1006000000000,18,,-1465818200000000000,0,,,,0,6,0,9,388805927770468,2.0,48.7,-439.1230,,,,,1575420000,,,,,,1,40.17
Raw,1781783988000,1006000000000,18,,-1465818200000000000,0,,,,0,7,0,9,388805922667283,2.0,41.7,591.5157,,,,,1575420000,,,,,,1,40.17
Raw,1781783988000,1006000000000,18,,-1465818200000000000,0,,,,0,10,0,9,388805928366768,2.0,45.7,213.4536,,,,,1575420000,,,,,,1,40.17
Raw,1781783988000,1006000000000,18,,-1465818200000000000,0,,,,0,13,0,9,388805932462578,2.0,51.0,22.1689,,,,,1575420000,,,,,,1,40.17
Raw,1781783988000,1006000000000,18,,-1465818200000000000,0,,,,0,17,0,9,388805922845263,2.0,41.9,343.0063,,,,,1575420000,,,,,,1,40.17
Raw,1781783988000,1006000000000,18,,-1465818200000000000,0,,,,0,20,0,9,388805921318021,2.0,37.3,-683.1114,,,,,1575420000,,,,,,1,40.17
Raw,1781783988000,1006000000000,18,,-1465818200000000000,0,,,,0,3,0,9,388805908785370,2.0,36.5,-106.9291,,,,,1575420000,,,,,,6,40.17
Raw,1781783988000,1006000000000,18,,-1465818200000000000,0,,,,0,4,0,9,388805913219686,2.0,40.4,408.9621,,,,,1575420000,,,,,,6,40.17
Raw,1781783988000,1006000000000,18,,-1465818200000000000,0,,,,0,8,0,9,388805918768073,2.0,47.6,-162.3742,,,,,1575420000,,,,,,6,40.17
Raw,1781783988000,1006000000000,18,,-1465818200000000000,0,,,,0,9,0,9,388805914541746,2.0,43.4,229.8105,,,,,1575420000,,,,,,6,40.17
Raw,1781783988000,1006000000000,18,,-1465818200000000000,0,,,,0,13,0,9,388805916924391,2.0,45.1,-1.5437,,,,,1575420000,,,,,,6,40.17
Raw,1781783988000,1006000000000,18,,-1465818200000000000,0,,,,0,18,0,9,388805913729291,2.0,42.6,-567.9323,,,,,1575420000,,,,,,6,40.17
Raw,1781783989000,1007000000000,18,,-1465818200000000000,0,,,,0,3,0,9,388806923688603,2.0,41.4,406.5845,,,,,1575420000,,,,,,1,40.52
Raw,1781783989000,1007000000000,18,,-1465818200000000000,0,,,,0,6,0,9,388806927771936,2.0,46.6,-439.0899,,,,,1575420000,,,,,,1,40.52
Raw,1781783989000,1007000000000,18,,-1465818200000000000,0,,,,0,7,0,9,388806922665312,2.0,40.3,591.4934,,,,,1575420000,,,,,,1,40.52
Raw,1781783989000,1007000000000,18,,-1465818200000000000,0,,,,0,10,0,9,388806928366059,2.0,48.1,213.4774,,,,,1575420000,,,,,,1,40.52
Raw,1781783989000,1007000000000,18,,-1465818200000000000,0,,,,0,13,0,9,388806932462503,2.0,51.7,22.3251,,,,,1575420000,,,,,,1,40.52
Raw,1781783989000,1007000000000,18,,-1465818200000000000,0,,,,0,17,0,9,388806922844115,2.0,40.8,343.1273,,,,,1575420000,,,,,,1,40.52
Raw,1781783989000,1007000000000,18,,-1465818200000000000,0,,,,0,20,0,9,388806921320301,2.0,39.6,-683.0607,,,,,1575420000,,,,,,1,40.52
Raw,1781783989000,1007000000000,18,,-1465818200000000000,0,,,,0,3,0,9,388806908785726,2.0,38.6,-106.8100,,,,,1575420000,,,,,,6,40.52
Raw,1781783989000,1007000000000,18,,-1465818200000000000,0,,,,0,4,0,9,388806913218317,2.0,41.6,408.9507,,,,,1575420000,,,,,,6,40.52
Raw,1781783989000,1007000000000,18,,-1465818200000000000,0,,,,0,8,0,9,388806918768617,2.0,49.7,-162.3941,,,,,1575420000,,,,,,6,40.52
Raw,1781783989000,1007000000000,18,,-1465818200000000000,0,,,,0,9,0,9,388806914540980,2.0,43.2,229.8379,,,,,1575420000,,,,,,6,40.52
Raw,1781783989000,1007000000000,18,,-1465818200000000000,0,,,,0,13,0,9,388806916924397,2.0,45.8,-1.4707,,,,,1575420000,,,,,,6,40.52
Raw,1781783989000,1007000000000,18,,-1465818200000000000,0,,,,0,18,0,9,388806913731186,2.0,41.8,-567.8433,,,,,1575420000,,,,,,6,40.52
Raw,1781783990000,1008000000000,18,,-1465818200000000000,0,,,,0,3,0,9,388807923687247,2.0,42.1,406.6898,,,,,1575420000,,,,,,1,39.53
Raw,1781783990000,1008000000000,18,,-1465818200000000000,0,,,,0,6,0,9,388807927773394,2.0,46.8,-439.0475,,,,,1575420000,,,,,,1,39.53
Raw,1781783990000,1008000000000,18,,-1465818200000000000,0,,,,0,7,0,9,388807922663335,2.0,39.8,591.5687,,,,,1575420000,,,,,,1,39.53
Raw,1781783990000,1008000000000,18,,-1465818200000000000,0,,,,0,10,0,9,388807928365343,2.0,46.9,213.5236,,,,,1575420000,,,,,,1,39.53
Raw,1781783990000,1008000000000,18,,-1465818200000000000,0,,,,0,13,0,9,388807932462434,2.0,51.7,22.2804,,,,,1575420000,,,,,,1,39.53
Raw,1781783990000,1008000000000,18,,-1465818200000000000,0,,,,0,17,0,9,388807922842974,2.0,39.9,343.3014,,,,,1575420000,,,,,,1,39.53
Raw,1781783990000,1008000000000,18,,-1465818200000000000,0,,,,0,20,0,9,388807921322579,2.0,38.9,-683.0460,,,,,1575420000,,,,,,1,39.53
Raw,1781783990000,1008000000000,18,,-1465818200000000000,0,,,,0,3,0,9,388807908786081,2.0,37.6,-106.6598,,,,,1575420000,,,,,,6,39.53
Raw,1781783990000,1008000000000,18,,-1465818200000000000,0,,,,0,4,0,9,388807913216956,2.0,43.8,409.0031,,,,,1575420000,,,,,,6,39.53
Raw,1781783990000,1008000000000,18,,-1465818200000000000,0,,,,0,8,0,9,388807918769161,2.0,48.4,-162.4455,,,,,1575420000,,,,,,6,39.53
Raw,1781783990000,1008000000000,18,,-1465818200000000000,0,,,,0,9,0,9,388807914540208,2.0,44.4,229.9122,,,,,1575420000,,,,,,6,39.53
Raw,1781783990000,1008000000000,18,,-1465818200000000000,0,,,,0,13,0,9,388807916924403,2.0,45.3,-1.4401,,,,,1575420000,,,,,,6,39.53
Raw,1781783990000,1008000000000,18,,-1465818200000000000,0,,,,0,18,0,9,388807913733080,2.0,42.3,-567.9081,,,,,1575420000,,,,,,6,39.53
Raw,1781783991000,1009000000000,18,,-1465818200000000000,0,,,,0,3,0,9,388808923685889,2.0,42.1,406.7475,,,,,1575420000,,,,,,1,40.03
Raw,1781783991000,1009000000000,18,,-1465818200000000000,0,,,,0,6,0,9,388808927774862,2.0,46.5,-438.9250,,,,,1575420000,,,,,,1,40.03
Raw,1781783991000,1009000000000,18,,-1465818200000000000,0,,,,0,7,0,9,388808922661364,2.0,39.7,591.6323,,,,,1575420000,,,,,,1,40.03
Raw,1781783991000,1009000000000,18,,-1465818200000000000,0,,,,0,10,0,9,388808928364630,2.0,47.5,213.5474,,,,,1575420000,,,,,,1,40.03
Raw,1781783991000,1009000000000,18,,-1465818200000000000,0,,,,0,13,0,9,388808932462360,2.0,51.6,22.3812,,,,,1575420000,,,,,,1,40.03
Raw,1781783991000,1009000000000,18,,-1465818200000000000,0,,,,0,17,0,9,388808922841828,2.0,39.9,343.3229,,,,,1575420000,,,,,,1,40.03
Raw,1781783991000,1009000000000,18,,-1465818200000000000,0,,,,0,20,0,9,388808921324857,2.0,38.8,-683.0275,,,,,1575420000,,,,,,1,40.03
Raw,1781783991000,1009000000000,18,,-1465818200000000000,0,,,,0,3,0,9,388808908786437,2.0,36.1,-106.6110,,,,,1575420000,,,,,,6,40.03
Raw,1781783991000,1009000000000,18,,-1465818200000000000,0,,,,0,4,0,9,388808913215593,2.0,41.0,409.0803,,,,,1575420000,,,,,,6,40.03
Raw,1781783991000,1009000000000,18,,-1465818200000000000,0,,,,0,8,0,9,388808918769704,2.0,48.4,-162.3542,,,,,1575420000,,,,,,6,40.03
Raw,1781783991000,1009000000000,18,,-1465818200000000000,0,,,,0,9,0,9,388808914539447,2.0,43.5,229.9129,,,,,1575420000,,,,,,6,40.03
Raw,1781783991000,1009000000000,18,,-1465818200000000000,0,,,,0,13,0,9,388808916924405,2.0,45.7,-1.2556,,,,,1575420000,,,,,,6,40.03
Raw,1781783991000,1009000000000,18,,-1465818200000000000,0,,,,0,18,0,9,388808913734972,2.0,41.0,-567.8432,,,,,1575420000,,,,,,6,40.03
Raw,1781783992000,1010000000000,18,,-1465818200000000000,0,,,,0,3,0,9,388809923684531,2.0,41.3,406.8448,,,,,1575420000,,,,,,1,40.09
Raw,1781783992000,1010000000000,18,,-1465818200000000000,0,,,,0,6,0,9,388809927776326,2.0,47.0,-438.8811,,,,,1575420000,,,,,,1,40.09
Raw,1781783992000,1010000000000,18,,-1465818200000000000,0,,,,0,7,0,9,388809922659388,2.0,41.9,591.6356,,,,,1575420000,,,,,,1,40.09
Raw,1781783992000,1010000000000,18,,-1465818200000000000,0,,,,0,10,0,9,388809928363923,2.0,48.0,213.6185,,,,,1575420000,,,,,,1,40.09
Raw,1781783992000,1010000000000,18,,-1465818200000000000,0,,,,0,13,0,9,388809932462282,2.0,50.9,22.5406,,,,,1575420000,,,,,,1,40.09
Raw,1781783992000,1010000000000,18,,-1465818200000000000,0,,,,0,17,0,9,388809922840681,2.0,39.8,343.4520,,,,,1575420000,,,,,,1,40.09
Raw,1781783992000,1010000000000,18,,-1465818200000000000,0,,,,0,20,0,9,388809921327138,2.0,37.9,-682.9944,,,,,1575420000,,,,,,1,40.09
Raw,1781783992000,1010000000000,18,,-1465818200000000000,0,,,,0,3,0,9,388809908786792,2.0,37.3,-106.5210,,,,,1575420000,,,,,,6,40.09
Raw,1781783992000,1010000000000,18,,-1465818200000000000,0,,,,0,4,0,9,388809913214230,2.0,41.7,409.1523,,,,,1575420000,,,,,,6,40.09
Raw,1781783992000,1010000000000,18,,-1465818200000000000,0,,,,0,8,0,9,388809918770241,2.0,47.8,-162.4940,,,,,1575420000,,,,,,6,40.09
Raw,1781783992000,1010000000000,18,,-1465818200000000000,0,,,,0,9,0,9,388809914538677,2.0,43.0,229.8503,,,,,1575420000,,,,,,6,40.09
Raw,1781783992000,1010000000000,18,,-1465818200000000000,0,,,,0,13,0,9,388809916924410,2.0,44.3,-1.2120,,,,,1575420000,,,,,,6,40.09
Raw,1781783992000,1010000000000,18,,-1465818200000000000,0,,,,0,18,0,9,388809913736867,2.0,41.3,-567.8374,,,,,1575420000,,,,,,6,40.09
Raw,1781783993000,1011000000000,18,,-1465818200000000000,0,,,,0,3,0,9,388810923683174,2.0,40.8,406.8811,,,,,1575420000,,,,,,1,40.00
Raw,1781783993000,1011000000000,18,,-1465818200000000000,0,,,,0,6,0,9,388810927777792,2.0,47.5,-438.7968,,,,,1575420000,,,,,,1,40.00
Raw,1781783993000,1011000000000,18,,-1465818200000000000,0,,,,0,7,0,9,388810922657415,2.0,40.7,591.7445,,,,,1575420000,,,,,,1,40.00
Raw,1781783993000,1011000000000,18,,-1465818200000000000,0,,,,0,10,0,9,388810928363205,2.0,47.8,213.5923,,,,,1575420000,,,,,,1,40.00
Raw,1781783993000,1011000000000,18,,-1465818200000000000,0,,,,0,13,0,9,388810932462206,2.0,50.6,22.5986,,,,,1575420000,,,,,,1,40.00
Raw,1781783993000,1011000000000,18,,-1465818200000000000,0,,,,0,17,0,9,388810922839538,2.0,39.9,343.5452,,,,,1575420000,,,,,,1,40.00
Raw,1781783993000,1011000000000,18,,-1465818200000000000,0,,,,0,20,0,9,388810921329414,2.0,39.1,-683.0097,,,,,1575420000,,,,,,1,40.00
Raw,1781783993000,1011000000000,18,,-1465818200000000000,0,,,,0,3,0,9,388810908787148,2.0,36.7,-106.4289,,,,,1575420000,,,,,,6,40.00
Raw,1781783993000,1011000000000,18,,-1465818200000000000,0,,,,0,4,0,9,388810913212861,2.0,42.3,409.1371,,,,,1575420000,,,,,,6,40.00
Raw,1781783993000,1011000000000,18,,-1465818200000000000,0,,,,0,8,0,9,388810918770786,2.0,49.7,-162.3872,,,,,1575420000,,,,,,6,40.00
Raw,1781783993000,1011000000000,18,,-1465818200000000000,0,,,,0,9,0,9,388810914537912,2.0,44.1,229.9139,,,,,1575420000,,,,,,6,40.00
Raw,1781783993000,1011000000000,18,,-1465818200000000000,0,,,,0,13,0,9,388810916924412,2.0,45.1,-1.1048,,,,,1575420000,,,,,,6,40.00
Raw,1781783993000,1011000000000,18,,-1465818200000000000,0,,,,0,18,0,9,388810913738761,2.0,41.0,-567.8649,,,,,1575420000,,,,,,6,40.00
Raw,1781783994000,1012000000000,18,,-1465818200000000000,0,,,,0,3,0,9,388811923681818,2.0,42.5,406.9790,,,,,1575420000,,,,,,1,40.33
Raw,1781783994000,1012000000000,18,,-1465818200000000000,0,,,,0,6,0,9,388811927779253,2.0,47.1,-438.7152,,,,,1575420000,,,,,,1,40.33
Raw,1781783994000,1012000000000,18,,-1465818200000000000,0,,,,0,7,0,9,388811922655440,2.0,42.4,591.7952,,,,,1575420000,,,,,,1,40.33
Raw,1781783994000,1012000000000,18,,-1465818200000000000,0,,,,0,10,0,9,388811928362494,2.0,48.0,213.6962,,,,,1575420000,,,,,,1,40.33
Raw,1781783994000,1012000000000,18,,-1465818200000000000,0,,,,0,13,0,9,388811932462132,2.0,51.4,22.7505,,,,,1575420000,,,,,,1,40.33
Raw,1781783994000,1012000000000,18,,-1465818200000000000,0,,,,0,17,0,9,388811922838391,2.0,38.8,343.6670,,,,,1575420000,,,,,,1,40.33
Raw,1781783994000,1012000000000,18,,-1465818200000000000,0,,,,0,20,0,9,388811921331694,2.0,38.0,-683.0180,,,,,1575420000,,,,,,1,40.33
Raw,1781783994000,1012000000000,18,,-1465818200000000000,0,,,,0,3,0,9,388811908787502,2.0,37.4,-106.3579,,,,,1575420000,,,,,,6,40.33
Raw,1781783994000,1012000000000,18,,-1465818200000000000,0,,,,0,4,0,9,388811913211498,2.0,41.3,409.1756,,,,,1575420000,,,,,,6,40.33
Raw,1781783994000,1012000000000,18,,-1465818200000000000,0,,,,0,8,0,9,388811918771327,2.0,49.4,-162.3808,,,,,1575420000,,,,,,6,40.33
Raw,1781783994000,1012000000000,18,,-1465818200000000000,0,,,,0,9,0,9,388811914537146,2.0,41.2,229.8550,,,,,1575420000,,,,,,6,40.33
Raw,1781783994000,1012000000000,18,,-1465818200000000000,0,,,,0,13,0,9,388811916924418,2.0,46.2,-0.9964,,,,,1575420000,,,,,,6,40.33
Raw,1781783994000,1012000000000,18,,-1465818200000000000,0,,,,0,18,0,9,388811913740656,2.0,40.2,-567.7857,,,,,1575420000,,,,,,6,40.33
Raw,1781783995000,1013000000000,18,,-1465818200000000000,0,,,,0,3,0,9,388812923680458,2.0,41.5,407.0190,,,,,1575420000,,,,,,1,40.34
Raw,1781783995000,1013000000000,18,,-1465818200000000000,0,,,,0,6,0,9,388812927780716,2.0,47.9,-438.6867,,,,,1575420000,,,,,,1,40.34
Raw,1781783995000,1013000000000,18,,-1465818200000000000,0,,,,0,7,0,9,388812922653471,2.0,40.6,591.8139,,,,,1575420000,,,,,,1,40.34
Raw,1781783995000,1013000000000,18,,-1465818200000000000,0,,,,0,10,0,9,388812928361783,2.0,47.2,213.6686,,,,,1575420000,,,,,,1,40.34
Raw,1781783995000,1013000000000,18,,-1465818200000000000,0,,,,0,13,0,9,388812932462053,2.0,50.8,22.8100,,,,,1575420000,,,,,,1,40.34
Raw,1781783995000,1013000000000,18,,-1465818200000000000,0,,,,0,17,0,9,388812922837243,2.0,40.4,343.8191,,,,,1575420000,,,,,,1,40.34
Raw,1781783995000,1013000000000,18,,-1465818200000000000,0,,,,0,20,0,9,388812921333974,2.0,38.5,-682.9576,,,,,1575420000,,,,,,1,40.34
Raw,1781783995000,1013000000000,18,,-1465818200000000000,0,,,,0,3,0,9,388812908787859,2.0,38.0,-106.3235,,,,,1575420000,,,,,,6,40.34
Raw,1781783995000,1013000000000,18,,-1465818200000000000,0,,,,0,4,0,9,388812913210137,2.0,42.9,409.1861,,,,,1575420000,,,,,,6,40.34
Raw,1781783995000,1013000000000,18,,-1465818200000000000,0,,,,0,8,0,9,388812918771872,2.0,48.2,-162.4002,,,,,1575420000,,,,,,6,40.34
Raw,1781783995000,1013000000000,18,,-1465818200000000000,0,,,,0,9,0,9,388812914536381,2.0,44.0,229.8940,,,,,1575420000,,,,,,6,40.34
Raw,1781783995000,1013000000000,18,,-1465818200000000000,0,,,,0,13,0,9,388812916924425,2.0,45.4,-0.9151,,,,,1575420000,,,,,,6,40.34
Raw,1781783995000,1013000000000,18,,-1465818200000000000,0,,,,0,18,0,9,388812913742551,2.0,40.6,-567.7944,,,,,1575420000,,,,,,6,40.34
Raw,1781783996000,1014000000000,18,,-1465818200000000000,0,,,,0,3,0,9,388813923679101,2.0,40.9,407.1203,,,,,1575420000,,,,,,1,40.00
Raw,1781783996000,1014000000000,18,,-1465818200000000000,0,,,,0,6,0,9,388813927782175,2.0,46.7,-438.5446,,,,,1575420000,,,,,,1,40.00
Raw,1781783996000,1014000000000,18,,-1465818200000000000,0,,,,0,7,0,9,388813922651494,2.0,42.4,591.8702,,,,,1575420000,,,,,,1,40.00
Raw,1781783996000,1014000000000,18,,-1465818200000000000,0,,,,0,10,0,9,388813928361063,2.0,48.7,213.6703,,,,,1575420000,,,,,,1,40.00
Raw,1781783996000,1014000000000,18,,-1465818200000000000,0,,,,0,13,0,9,388813932461983,2.0,51.7,22.8732,,,,,1575420000,,,,,,1,40.00
Raw,1781783996000,1014000000000,18,,-1465818200000000000,0,,,,0,17,0,9,388813922836099,2.0,40.3,343.8797,,,,,1575420000,,,,,,1,40.00
Raw,1781783996000,1014000000000,18,,-1465818200000000000,0,,,,0,20,0,9,388813921336250,2.0,39.5,-682.9508,,,,,1575420000,,,,,,1,40.00
Raw,1781783996000,1014000000000,18,,-1465818200000000000,0,,,,0,3,0,9,388813908788212,2.0,37.1,-106.2022,,,,,1575420000,,,,,,6,40.00
Raw,1781783996000,1014000000000,18,,-1465818200000000000,0,,,,0,4,0,9,388813913208768,2.0,41.6,409.3026,,,,,1575420000,,,,,,6,40.00
Raw,1781783996000,1014000000000,18,,-1465818200000000000,0,,,,0,8,0,9,388813918772412,2.0,48.3,-162.3865,,,,,1575420000,,,,,,6,40.00
Raw,1781783996000,1014000000000,18,,-1465818200000000000,0,,,,0,9,0,9,388813914535608,2.0,43.1,229.9014,,,,,1575420000,,,,,,6,40.00
Raw,1781783996000,1014000000000,18,,-1465818200000000000,0,,,,0,13,0,9,388813916924423,2.0,44.3,-0.8022,,,,,1575420000,,,,,,6,40.00
Raw,1781783996000,1014000000000,18,,-1465818200000000000,0,,,,0,18,0,9,388813913744443,2.0,42.4,-567.7895,,,,,1575420000,,,,,,6,40.00
Raw,1781783997000,1015000000000,18,,-1465818200000000000,0,,,,0,3,0,9,388814923677743,2.0,41.4,407.1321,,,,,1575420000,,,,,,1,39.89
Raw,1781783997000,1015000000000,18,,-1465818200000000000,0,,,,0,6,0,9,388814927783644,2.0,46.3,-438.5108,,,,,1575420000,,,,,,1,39.89
Raw,1781783997000,1015000000000,18,,-1465818200000000000,0,,,,0,7,0,9,388814922649521,2.0,42.1,591.9180,,,,,1575420000,,,,,,1,39.89
Raw,1781783997000,1015000000000,18,,-1465818200000000000,0,,,,0,10,0,9,388814928360355,2.0,47.3,213.7143,,,,,1575420000,,,,,,1,39.89
Raw,1781783997000,1015000000000,18,,-1465818200000000000,0,,,,0,13,0,9,388814932461901,2.0,51.3,22.9175,,,,,1575420000,,,,,,1,39.89
Raw,1781783997000,1015000000000,18,,-1465818200000000000,0,,,,0,17,0,9,388814922834952,2.0,40.7,343.9920,,,,,1575420000,,,,,,1,39.89
Raw,1781783997000,1015000000000,18,,-1465818200000000000,0,,,,0,20,0,9,388814921338527,2.0,37.6,-682.9029,,,,,1575420000,,,,,,1,39.89
Raw,1781783997000,1015000000000,18,,-1465818200000000000,0,,,,0,3,0,9,388814908788568,2.0,38.3,-106.1128,,,,,1575420000,,,,,,6,39.89
Raw,1781783997000,1015000000000,18,,-1465818200000000000,0,,,,0,4,0,9,388814913207401,2.0,43.1,409.3170,,,,,1575420000,,,,,,6,39.89
Raw,1781783997000,1015000000000,18,,-1465818200000000000,0,,,,0,8,0,9,388814918772951,2.0,47.9,-162.3917,,,,,1575420000,,,,,,6,39.89
Raw,1781783997000,1015000000000,18,,-1465818200000000000,0,,,,0,9,0,9,388814914534847,2.0,42.0,229.9740,,,,,1575420000,,,,,,6,39.89
Raw,1781783997000,1015000000000,18,,-1465818200000000000,0,,,,0,13,0,9,388814916924427,2.0,45.9,-0.7727,,,,,1575420000,,,,,,6,39.89
Raw,1781783997000,1015000000000,18,,-1465818200000000000,0,,,,0,18,0,9,388814913746339,2.0,41.5,-567.7559,,,,,1575420000,,,,,,6,39.89
Raw,1781783998000,1016000000000,18,,-1465818200000000000,0,,,,0,3,0,9,388815923676382,2.0,42.3,407.2662,,,,,1575420000,,,,,,1,39.75
Raw,1781783998000,1016000000000,18,,-1465818200000000000,0,,,,0,6,0,9,388815927785102,2.0,47.9,-438.4411,,,,,1575420000,,,,,,1,39.75
Raw,1781783998000,1016000000000,18,,-1465818200000000000,0,,,,0,7,0,9,388815922647544,2.0,41.8,591.9702,,,,,1575420000,,,,,,1,39.75
Raw,1781783998000,1016000000000,18,,-1465818200000000000,0,,,,0,10,0,9,388815928359641,2.0,48.8,213.7395,,,,,1575420000,,,,,,1,39.75
Raw,1781783998000,1016000000000,18,,-1465818200000000000,0,,,,0,13,0,9,388815932461824,2.0,51.0,23.0614,,,,,1575420000,,,,,,1,39.75
Raw,1781783998000,1016000000000,18,,-1465818200000000000,0,,,,0,17,0,9,388815922833802,2.0,40.3,344.0801,,,,,1575420000,,,,,,1,39.75
Raw,1781783998000,1016000000000,18,,-1465818200000000000,0,,,,0,20,0,9,388815921340804,2.0,38.7,-682.9071,,,,,1575420000,,,,,,1,39.75
Raw,1781783998000,1016000000000,18,,-1465818200000000000,0,,,,0,3,0,9,388815908788922,2.0,37.8,-105.9829,,,,,1575420000,,,,,,6,39.75
Raw,1781783998000,1016000000000,18,,-1465818200000000000,0,,,,0,4,0,9,388815913206040,2.0,41.3,409.3294,,,,,1575420000,,,,,,6,39.75
Raw,1781783998000,1016000000000,18,,-1465818200000000000,0,,,,0,8,0,9,388815918773495,2.0,47.2,-162.3966,,,,,1575420000,,,,,,6,39.75
Raw,1781783998000,1016000000000,18,,-1465818200000000000,0,,,,0,9,0,9,388815914534075,2.0,44.7,229.9377,,,,,1575420000,,,,,,6,39.75
Raw,1781783998000,1016000000000,18,,-1465818200000000000,0,,,,0,13,0,9,388815916924429,2.0,46.0,-0.6584,,,,,1575420000,,,,,,6,39.75
Raw,1781783998000,1016000000000,18,,-1465818200000000000,0,,,,0,18,0,9,388815913748232,2.0,40.9,-567.7058,,,,,1575420000,,,,,,6,39.75
Raw,1781783999000,1017000000000,18,,-1465818200000000000,0,,,,0,3,0,9,388816923675029,2.0,41.6,407.2652,,,,,1575420000,,,,,,1,40.33
Raw,1781783999000,1017000000000,18,,-1465818200000000000,0,,,,0,6,0,9,388816927786565,2.0,47.0,-438.3477,,,,,1575420000,,,,,,1,40.33
Raw,1781783999000,1017000000000,18,,-1465818200000000000,0,,,,0,7,0,9,388816922645570,2.0,41.6,592.0067,,,,,1575420000,,,,,,1,40.33
Raw,1781783999000,1017000000000,18,,-1465818200000000000,0,,,,0,10,0,9,388816928358928,2.0,47.2,213.7870,,,,,1575420000,,,,,,1,40.33
Raw,1781783999000,1017000000000,18,,-1465818200000000000,0,,,,0,13,0,9,388816932461746,2.0,50.4,23.1348,,,,,1575420000,,,,,,1,40.33
Raw,1781783999000,1017000000000,18,,-1465818200000000000,0,,,,0,17,0,9,388816922832654,2.0,39.4,344.1628,,,,,1575420000,,,,,,1,40.33
Raw,1781783999000,1017000000000,18,,-1465818200000000000,0,,,,0,20,0,9,388816921343080,2.0,39.3,-682.8997,,,,,1575420000,,,,,,1,40.33
Raw,1781783999000,1017000000000,18,,-1465818200000000000,0,,,,0,3,0,9,388816908789279,2.0,37.1,-105.9401,,,,,1575420000,,,,,,6,40.33
Raw,1781783999000,1017000000000,18,,-1465818200000000000,0,,,,0,4,0,9,388816913204672,2.0,42.5,409.4455,,,,,1575420000,,,,,,6,40.33
Raw,1781783999000,1017000000000,18,,-1465818200000000000,0,,,,0,8,0,9,388816918774032,2.0,49.3,-162.3927,,,,,1575420000,,,,,,6,40.33
Raw,1781783999000,1017000000000,18,,-1465818200000000000,0,,,,0,9,0,9,388816914533308,2.0,43.1,230.0013,,,,,1575420000,,,,,,6,40.33
Raw,1781783999000,1017000000000,18,,-1465818200000000000,0,,,,0,13,0,9,388816916924434,2.0,45.2,-0.5275,,,,,1575420000,,,,,,6,40.33
Raw,1781783999000,1017000000000,18,,-1465818200000000000,0,,,,0,18,0,9,388816913750125,2.0,41.7,-567.6920,,,,,1575420000,,,,,,6,40.33
Raw,1781784000000,1018000000000,18,,-1465818200000000000,0,,,,0,3,0,9,388817923673666,2.0,41.3,407.4246,,,,,1575420000,,,,,,1,40.25
Raw,1781784000000,1018000000000,18,,-1465818200000000000,0,,,,0,6,0,9,388817927788030,2.0,46.9,-438.3108,,,,,1575420000,,,,,,1,40.25
Raw,1781784000000,1018000000000,18,,-1465818200000000000,0,,,,0,7,0,9,388817922643597,2.0,42.2,592.0701,,,,,1575420000,,,,,,1,40.25
Raw,1781784000000,1018000000000,18,,-1465818200000000000,0,,,,0,10,0,9,388817928358217,2.0,46.4,213.8239,,,,,1575420000,,,,,,1,40.25
Raw,1781784000000,1018000000000,18,,-1465818200000000000,0,,,,0,13,0,9,388817932461674,2.0,51.0,23.2412,,,,,1575420000,,,,,,1,40.25
Raw,1781784000000,1018000000000,18,,-1465818200000000000,0,,,,0,17,0,9,388817922831504,2.0,38.7,344.3195,,,,,1575420000,,,,,,1,40.25
Raw,1781784000000,1018000000000,18,,-1465818200000000000,0,,,,0,20,0,9,388817921345361,2.0,39.7,-682.9237,,,,,1575420000,,,,,,1,40.25
Raw,1781784000000,1018000000000,18,,-1465818200000000000,0,,,,0,3,0,9,388817908789624,2.0,38.0,-105.8768,,,,,1575420000,,,,,,6,40.25
Raw,1781784000000,1018000000000,18,,-1465818200000000000,0,,,,0,4,0,9,388817913203305,2.0,41.9,409.4251,,,,,1575420000,,,,,,6,40.25
Raw,1781784000000,1018000000000,18,,-1465818200000000000,0,,,,0,8,0,9,388817918774578,2.0,50.0,-162.3618,,,,,1575420000,,,,,,6,40.25
Raw,1781784000000,1018000000000,18,,-1465818200000000000,0,,,,0,9,0,9,388817914532544,2.0,41.7,229.9412,,,,,1575420000,,,,,,6,40.25
Raw,1781784000000,1018000000000,18,,-1465818200000000000,0,,,,0,13,0,9,388817916924434,2.0,46.5,-0.4328,,,,,1575420000,,,,,,6,40.25
Raw,1781784000000,1018000000000,18,,-1465818200000000000,0,,,,0,18,0,9,388817913752023,2.0,42.0,-567.6612,,,,,1575420000,,,,,,6,40.25
Raw,1781784001000,1019000000000,18,,-1465818200000000000,0,,,,0,3,0,9,388818923672306,2.0,41.6,407.4370,,,,,1575420000,,,,,,1,39.86
Raw,1781784001000,1019000000000,18,,-1465818200000000000,0,,,,0,6,0,9,388818927789486,2.0,45.7,-438.2108,,,,,1575420000,,,,,,1,39.86
Raw,1781784001000,1019000000000,18,,-1465818200000000000,0,,,,0,7,0,9,388818922641617,2.0,40.6,592.1233,,,,,1575420000,,,,,,1,39.86
Raw,1781784001000,1019000000000,18,,-1465818200000000000,0,,,,0,10,0,9,388818928357501,2.0,48.1,213.8487,,,,,1575420000,,,,,,1,39.86
Raw,1781784001000,1019000000000,18,,-1465818200000000000,0,,,,0,13,0,9,388818932461590,2.0,51.2,23.3900,,,,,1575420000,,,,,,1,39.86
Raw,1781784001000,1019000000000,18,,-1465818200000000000,0,,,,0,17,0,9,388818922830354,2.0,39.9,344.5123,,,,,1575420000,,,,,,1,39.86
Raw,1781784001000,1019000000000,18,,-1465818200000000000,0,,,,0,20,0,9,388818921347636,2.0,40.0,-682.8382,,,,,1575420000,,,,,,1,39.86
Raw,1781784001000,1019000000000,18,,-1465818200000000000,0,,,,0,3,0,9,388818908789984,2.0,36.6,-105.8048,,,,,1575420000,,,,,,6,39.86
Raw,1781784001000,1019000000000,18,,-1465818200000000000,0,,,,0,4,0,9,388818913201940,2.0,43.0,409.4874,,,,,1575420000,,,,,,6,39.86
Raw,1781784001000,1019000000000,18,,-1465818200000000000,0,,,,0,8,0,9,388818918775120,2.0,47.5,-162.3771,,,,,1575420000,,,,,,6,39.86
Raw,1781784001000,1019000000000,18,,-1465818200000000000,0,,,,0,9,0,9,388818914531770,2.0,42.2,230.0081,,,,,1575420000,,,,,,6,39.86
Raw,1781784001000,1019000000000,18,,-1465818200000000000,0,,,,0,13,0,9,388818916924431,2.0,46.0,-0.3596,,,,,1575420000,,,,,,6,39.86
Raw,1781784001000,1019000000000,18,,-1465818200000000000,0,,,,0,18,0,9,388818913753908,2.0,42.5,-567.5970,,,,,1575420000,,,,,,6,39.86
Raw,1781784002000,1020000000000,18,,-1465818200000000000,0,,,,0,3,0,9,388819923670953,2.0,41.3,407.4603,,,,,1575420000,,,,,,1,39.63
Raw,1781784002000,1020000000000,18,,-1465818200000000000,0,,,,0,6,0,9,388819927790954,2.0,46.8,-438.1312,,,,,1575420000,,,,,,1,39.63
Raw,1781784002000,1020000000000,18,,-1465818200000000000,0,,,,0,7,0,9,388819922639642,2.0,40.5,592.1220,,,,,1575420000,,,,,,1,39.63
Raw,1781784002000,1020000000000,18,,-1465818200000000000,0,,,,0,10,0,9,388819928356788,2.0,48.6,213.9120,,,,,1575420000,,,,,,1,39.63
Raw,1781784002000,1020000000000,18,,-1465818200000000000,0,,,,0,13,0,9,388819932461514,2.0,50.4,23.4198,,,,,1575420000,,,,,,1,39.63
Raw,1781784002000,1020000000000,18,,-1465818200000000000,0,,,,0,17,0,9,388819922829206,2.0,40.1,344.5810,,,,,1575420000,,,,,,1,39.63
Raw,1781784002000,1020000000000,18,,-1465818200000000000,0,,,,0,20,0,9,388819921349917,2.0,38.8,-682.9064,,,,,1575420000,,,,,,1,39.63
Raw,1781784002000,1020000000000,18,,-1465818200000000000,0,,,,0,3,0,9,388819908790333,2.0,36.9,-105.7201,,,,,1575420000,,,,,,6,39.63
Raw,1781784002000,1020000000000,18,,-1465818200000000000,0,,,,0,4,0,9,388819913200574,2.0,41.8,409.5053,,,,,1575420000,,,,,,6,39.63
Raw,1781784002000,1020000000000,18,,-1465818200000000000,0,,,,0,8,0,9,388819918775661,2.0,48.5,-162.3232,,,,,1575420000,,,,,,6,39.63
Raw,1781784002000,1020000000000,18,,-1465818200000000000,0,,,,0,9,0,9,388819914531005,2.0,41.3,229.9155,,,,,1575420000,,,,,,6,39.63
Raw,1781784002000,1020000000000,18,,-1465818200000000000,0,,,,0,13,0,9,388819916924432,2.0,45.0,-0.3027,,,,,1575420000,,,,,,6,39.63
Raw,1781784002000,1020000000000,18,,-1465818200000000000,0,,,,0,18,0,9,388819913755804,2.0,41.6,-567.5814,,,,,1575420000,,,,,,6,39.63
Raw,1781784003000,1021000000000,18,,-1465818200000000000,0,,,,0,3,0,9,388820923669588,2.0,41.8,407.5948,,,,,1575420000,,,,,,1,40.28
Raw,1781784003000,1021000000000,18,,-1465818200000000000,0,,,,0,6,0,9,388820927792414,2.0,45.3,-438.0529,,,,,1575420000,,,,,,1,40.28
Raw,1781784003000,1021000000000,18,,-1465818200000000000,0,,,,0,7,0,9,388820922637670,2.0,41.0,592.1417,,,,,1575420000,,,,,,1,40.28
Raw,1781784003000,1021000000000,18,,-1465818200000000000,0,,,,0,10,0,9,388820928356076,2.0,46.3,213.9221,,,,,1575420000,,,,,,1,40.28
Raw,1781784003000,1021000000000,18,,-1465818200000000000,0,,,,0,13,0,9,388820932461441,2.0,50.4,23.5709,,,,,1575420000,,,,,,1,40.28
Raw,1781784003000,1021000000000,18,,-1465818200000000000,0,,,,0,17,0,9,388820922828056,2.0,39.1,344.6048,,,,,1575420000,,,,,,1,40.28
Raw,1781784003000,1021000000000,18,,-1465818200000000000,0,,,,0,20,0,9,388820921352190,2.0,40.1,-682.8834,,,,,1575420000,,,,,,1,40.28
Raw,1781784003000,1021000000000,18,,-1465818200000000000,0,,,,0,3,0,9,388820908790688,2.0,37.4,-105.5300,,,,,1575420000,,,,,,6,40.28
Raw,1781784003000,1021000000000,18,,-1465818200000000000,0,,,,0,4,0,9,388820913199210,2.0,41.5,409.5737,,,,,1575420000,,,,,,6,40.28
Raw,1781784003000,1021000000000,18,,-1465818200000000000,0,,,,0,8,0,9,388820918776203,2.0,47.1,-162.3515,,,,,1575420000,,,,,,6,40.28
Raw,1781784003000,1021000000000,18,,-1465818200000000000,0,,,,0,9,0,9,388820914530240,2.0,44.4,230.0105,,,,,1575420000,,,,,,6,40.28
Raw,1781784003000,1021000000000,18,,-1465818200000000000,0,,,,0,13,0,9,388820916924439,2.0,46.5,-0.1733,,,,,1575420000,,,,,,6,40.28
Raw,1781784003000,1021000000000,18,,-1465818200000000000,0,,,,0,18,0,9,388820913757699,2.0,41.4,-567.6276,,,,,1575420000,,,,,,6,40.28
Raw,1781784004000,1022000000000,18,,-1465818200000000000,0,,,,0,3,0,9,388821923668230,2.0,40.6,407.6078,,,,,1575420000,,,,,,1,40.21
Raw,1781784004000,1022000000000,18,,-1465818200000000000,0,,,,0,6,0,9,388821927793873,2.0,46.7,-438.0163,,,,,1575420000,,,,,,1,40.21
Raw,1781784004000,1022000000000,18,,-1465818200000000000,0,,,,0,7,0,9,388821922635693,2.0,41.4,592.3230,,,,,1575420000,,,,,,1,40.21
Raw,1781784004000,1022000000000,18,,-1465818200000000000,0,,,,0,10,0,9,388821928355364,2.0,48.1,213.9439,,,,,1575420000,,,,,,1,40.21
Raw,1781784004000,1022000000000,18,,-1465818200000000000,0,,,,0,13,0,9,388821932461358,2.0,51.3,23.6226,,,,,1575420000,,,,,,1,40.21
Raw,1781784004000,1022000000000,18,,-1465818200000000000,0,,,,0,17,0,9,388821922826912,2.0,39.9,344.7596,,,,,1575420000,,,,,,1,40.21
Raw,1781784004000,1022000000000,18,,-1465818200000000000,0,,,,0,20,0,9,388821921354472,2.0,40.2,-682.9127,,,,,1575420000,,,,,,1,40.21
Raw,1781784004000,1022000000000,18,,-1465818200000000000,0,,,,0,3,0,9,388821908791036,2.0,39.3,-105.4427,,,,,1575420000,,,,,,6,40.21
Raw,1781784004000,1022000000000,18,,-1465818200000000000,0,,,,0,4,0,9,388821913197842,2.0,42.5,409.5373,,,,,1575420000,,,,,,6,40.21
Raw,1781784004000,1022000000000,18,,-1465818200000000000,0,,,,0,8,0,9,388821918776742,2.0,48.4,-162.4151,,,,,1575420000,,,,,,6,40.21
Raw,1781784004000,1022000000000,18,,-1465818200000000000,0,,,,0,9,0,9,388821914529475,2.0,43.2,230.0156,,,,,1575420000,,,,,,6,40.21
Raw,1781784004000,1022000000000,18,,-1465818200000000000,0,,,,0,13,0,9,388821916924439,2.0,45.1,-0.0846,,,,,1575420000,,,,,,6,40.21
Raw,1781784004000,1022000000000,18,,-1465818200000000000,0,,,,0,18,0,9,388821913759592,2.0,41.9,-567.6016,,,,,1575420000,,,,,,6,40.21
Raw,1781784005000,1023000000000,18,,-1465818200000000000,0,,,,0,3,0,9,388822923666871,2.0,43.8,407.6617,,,,,1575420000,,,,,,1,39.94
Raw,1781784005000,1023000000000,18,,-1465818200000000000,0,,,,0,6,0,9,388822927795332,2.0,47.0,-438.0127,,,,,1575420000,,,,,,1,39.94
Raw,1781784005000,1023000000000,18,,-1465818200000000000,0,,,,0,7,0,9,388822922633721,2.0,41.0,592.3228,,,,,1575420000,,,,,,1,39.94
Raw,1781784005000,1023000000000,18,,-1465818200000000000,0,,,,0,10,0,9,388822928354647,2.0,47.9,214.0014,,,,,1575420000,,,,,,1,39.94
Raw,1781784005000,1023000000000,18,,-1465818200000000000,0,,,,0,13,0,9,388822932461277,2.0,50.2,23.6473,,,,,1575420000,,,,,,1,39.94
Raw,1781784005000,1023000000000,18,,-1465818200000000000,0,,,,0,17,0,9,388822922825756,2.0,40.4,344.8837,,,,,1575420000,,,,,,1,39.94
Raw,1781784005000,1023000000000,18,,-1465818200000000000,0,,,,0,20,0,9,388822921356749,2.0,38.4,-682.8543,,,,,1575420000,,,,,,1,39.94
Raw,1781784005000,1023000000000,18,,-1465818200000000000,0,,,,0,3,0,9,388822908791391,2.0,38.9,-105.4084,,,,,1575420000,,,,,,6,39.94
Raw,1781784005000,1023000000000,18,,-1465818200000000000,0,,,,0,4,0,9,388822913196475,2.0,41.4,409.6708,,,,,1575420000,,,,,,6,39.94
Raw,1781784005000,1023000000000,18,,-1465818200000000000,0,,,,0,8,0,9,388822918777287,2.0,49.4,-162.4207,,,,,1575420000,,,,,,6,39.94
Raw,1781784005000,1023000000000,18,,-1465818200000000000,0,,,,0,9,0,9,388822914528707,2.0,43.5,230.0502,,,,,1575420000,,,,,,6,39.94
Raw,1781784005000,1023000000000,18,,-1465818200000000000,0,,,,0,13,0,9,388822916924431,2.0,46.5,0.0599,,,,,1575420000,,,,,,6,39.94
Raw,1781784005000,1023000000000,18,,-1465818200000000000,0,,,,0,18,0,9,388822913761489,2.0,41.2,-567.5384,,,,,1575420000,,,,,,6,39.94
Raw,1781784006000,1024000000000,18,,-1465818200000000000,0,,,,0,3,0,9,388823923665511,2.0,41.3,407.7888,,,,,1575420000,,,,,,1,39.75
Raw,1781784006000,1024000000000,18,,-1465818200000000000,0,,,,0,6,0,9,388823927796798,2.0,46.9,-437.9073,,,,,1575420000,,,,,,1,39.75
Raw,1781784006000,1024000000000,18,,-1465818200000000000,0,,,,0,7,0,9,388823922631741,2.0,42.3,592.3392,,,,,1575420000,,,,,,1,39.75
Raw,1781784006000,1024000000000,18,,-1465818200000000000,0,,,,0,10,0,9,388823928353935,2.0,48.8,214.0163,,,,,1575420000,,,,,,1,39.75
Raw,1781784006000,1024000000000,18,,-1465818200000000000,0,,,,0,13,0,9,388823932461205,2.0,51.3,23.7586,,,,,1575420000,,,,,,1,39.75
Raw,1781784006000,1024000000000,18,,-1465818200000000000,0,,,,0,17,0,9,388823922824607,2.0,40.1,344.9899,,,,,1575420000,,,,,,1,39.75
Raw,1781784006000,1024000000000,18,,-1465818200000000000,0,,,,0,20,0,9,388823921359029,2.0,39.1,-682.8398,,,,,1575420000,,,,,,1,39.75
Raw,1781784006000,1024000000000,18,,-1465818200000000000,0,,,,0,3,0,9,388823908791741,2.0,38.5,-105.3473,,,,,1575420000,,,,,,6,39.75
Raw,1781784006000,1024000000000,18,,-1465818200000000000,0,,,,0,4,0,9,388823913195106,2.0,41.0,409.6973,,,,,1575420000,,,,,,6,39.75
Raw,1781784006000,1024000000000,18,,-1465818200000000000,0,,,,0,8,0,9,388823918777825,2.0,48.4,-162.3871,,,,,1575420000,,,,,,6,39.75
Raw,1781784006000,1024000000000,18,,-1465818200000000000,0,,,,0,9,0,9,388823914527942,2.0,43.6,230.0134,,,,,1575420000,,,,,,6,39.75
Raw,1781784006000,1024000000000,18,,-1465818200000000000,0,,,,0,13,0,9,388823916924434,2.0,46.2,0.0743,,,,,1575420000,,,,,,6,39.75
Raw,1781784006000,1024000000000,18,,-1465818200000000000,0,,,,0,18,0,9,388823913763379,2.0,41.3,-567.5139,,,,,1575420000,,,,,,6,39.75
Raw,1781784007000,1025000000000,18,,-1465818200000000000,0,,,,0,3,0,9,388824923664148,2.0,40.8,407.8114,,,,,1575420000,,,,,,1,39.86
Raw,1781784007000,1025000000000,18,,-1465818200000000000,0,,,,0,6,0,9,388824927798258,2.0,46.8,-437.7754,,,,,1575420000,,,,,,1,39.86
Raw,1781784007000,1025000000000,18,,-1465818200000000000,0,,,,0,7,0,9,388824922629767,2.0,40.8,592.4354,,,,,1575420000,,,,,,1,39.86
Raw,1781784007000,1025000000000,18,,-1465818200000000000,0,,,,0,10,0,9,388824928353220,2.0,47.9,214.0398,,,,,1575420000,,,,,,1,39.86
Raw,1781784007000,1025000000000,18,,-1465818200000000000,0,,,,0,13,0,9,388824932461120,2.0,51.4,23.8880,,,,,1575420000,,,,,,1,39.86
Raw,1781784007000,1025000000000,18,,-1465818200000000000,0,,,,0,17,0,9,388824922823452,2.0,40.4,345.0790,,,,,1575420000,,,,,,1,39.86
Raw,1781784007000,1025000000000,18,,-1465818200000000000,0,,,,0,20,0,9,388824921361308,2.0,37.4,-682.7725,,,,,1575420000,,,,,,1,39.86
Raw,1781784007000,1025000000000,18,,-1465818200000000000,0,,,,0,3,0,9,388824908792090,2.0,36.9,-105.2691,,,,,1575420000,,,,,,6,39.86
Raw,1781784007000,1025000000000,18,,-1465818200000000000,0,,,,0,4,0,9,388824913193742,2.0,42.3,409.7292,,,,,1575420000,,,,,,6,39.86
Raw,1781784007000,1025000000000,18,,-1465818200000000000,0,,,,0,8,0,9,388824918778369,2.0,48.9,-162.3381,,,,,1575420000,,,,,,6,39.86
Raw,1781784007000,1025000000000,18,,-1465818200000000000,0,,,,0,9,0,9,388824914527172,2.0,43.7,230.0267,,,,,1575420000,,,,,,6,39.86
Raw,1781784007000,1025000000000,18,,-1465818200000000000,0,,,,0,13,0,9,388824916924437,2.0,46.1,0.2136,,,,,1575420000,,,,,,6,39.86
Raw,1781784007000,1025000000000,18,,-1465818200000000000,0,,,,0,18,0,9,388824913765271,2.0,41.2,-567.5084,,,,,1575420000,,,,,,6,39.86
Raw,1781784008000,1026000000000,18,,-1465818200000000000,0,,,,0,3,0,9,388825923662791,2.0,40.6,407.8495,,,,,1575420000,,,,,,1,40.30
Raw,1781784008000,1026000000000,18,,-1465818200000000000,0,,,,0,6,0,9,388825927799714,2.0,46.5,-437.7175,,,,,1575420000,,,,,,1,40.30
Raw,1781784008000,1026000000000,18,,-1465818200000000000,0,,,,0,7,0,9,388825922627792,2.0,40.5,592.4818,,,,,1575420000,,,,,,1,40.30
Raw,1781784008000,1026000000000,18,,-1465818200000000000,0,,,,0,10,0,9,388825928352510,2.0,46.2,214.0668,,,,,1575420000,,,,,,1,40.30
Raw,1781784008000,1026000000000,18,,-1465818200000000000,0,,,,0,13,0,9,388825932461037,2.0,50.9,23.9301,,,,,1575420000,,,,,,1,40.30
Raw,1781784008000,1026000000000,18,,-1465818200000000000,0,,,,0,17,0,9,388825922822302,2.0,40.0,345.2179,,,,,1575420000,,,,,,1,40.30
Raw,1781784008000,1026000000000,18,,-1465818200000000000,0,,,,0,20,0,9,388825921363583,2.0,39.4,-682.7998,,,,,1575420000,,,,,,1,40.30
Raw,1781784008000,1026000000000,18,,-1465818200000000000,0,,,,0,3,0,9,388825908792444,2.0,38.8,-105.1921,,,,,1575420000,,,,,,6,40.30
Raw,1781784008000,1026000000000,18,,-1465818200000000000,0,,,,0,4,0,9,388825913192379,2.0,41.9,409.7650,,,,,1575420000,,,,,,6,40.30
Raw,1781784008000,1026000000000,18,,-1465818200000000000,0,,,,0,8,0,9,388825918778910,2.0,47.3,-162.3517,,,,,1575420000,,,,,,6,40.30
Raw,1781784008000,1026000000000,18,,-1465818200000000000,0,,,,0,9,0,9,388825914526407,2.0,42.8,230.0259,,,,,1575420000,,,,,,6,40.30
Raw,1781784008000,1026000000000,18,,-1465818200000000000,0,,,,0,13,0,9,388825916924433,2.0,45.4,0.2316,,,,,1575420000,,,,,,6,40.30
Raw,1781784008000,1026000000000,18,,-1465818200000000000,0,,,,0,18,0,9,388825913767163,2.0,40.8,-567.4529,,,,,1575420000,,,,,,6,40.30
Raw,1781784009000,1027000000000,18,,-1465818200000000000,0,,,,0,3,0,9,388826923661428,2.0,40.4,407.9226,,,,,1575420000,,,,,,1,39.93
Raw,1781784009000,1027000000000,18,,-1465818200000000000,0,,,,0,6,0,9,388826927801177,2.0,46.7,-437.6411,,,,,1575420000,,,,,,1,39.93
Raw,1781784009000,1027000000000,18,,-1465818200000000000,0,,,,0,7,0,9,388826922625813,2.0,42.9,592.5128,,,,,1575420000,,,,,,1,39.93
Raw,1781784009000,1027000000000,18,,-1465818200000000000,0,,,,0,10,0,9,388826928351793,2.0,48.1,214.0888,,,,,1575420000,,,,,,1,39.93
Raw,1781784009000,1027000000000,18,,-1465818200000000000,0,,,,0,13,0,9,388826932460964,2.0,51.7,24.0589,,,,,1575420000,,,,,,1,39.93
Raw,1781784009000,1027000000000,18,,-1465818200000000000,0,,,,0,17,0,9,388826922821153,2.0,40.1,345.2934,,,,,1575420000,,,,,,1,39.93
Raw,1781784009000,1027000000000,18,,-1465818200000000000,0,,,,0,20,0,9,388826921365862,2.0,38.6,-682.7619,,,,,1575420000,,,,,,1,39.93
Raw,1781784009000,1027000000000,18,,-1465818200000000000,0,,,,0,3,0,9,388826908792791,2.0,37.8,-105.1117,,,,,1575420000,,,,,,6,39.93
Raw,1781784009000,1027000000000,18,,-1465818200000000000,0,,,,0,4,0,9,388826913191010,2.0,42.6,409.7795,,,,,1575420000,,,,,,6,39.93
Raw,1781784009000,1027000000000,18,,-1465818200000000000,0,,,,0,8,0,9,388826918779448,2.0,49.2,-162.3316,,,,,1575420000,,,,,,6,39.93
Raw,1781784009000,1027000000000,18,,-1465818200000000000,0,,,,0,9,0,9,388826914525637,2.0,42.4,230.0600,,,,,1575420000,,,,,,6,39.93
Raw,1781784009000,1027000000000,18,,-1465818200000000000,0,,,,0,13,0,9,388826916924433,2.0,46.0,0.3564,,,,,1575420000,,,,,,6,39.93
Raw,1781784009000,1027000000000,18,,-1465818200000000000,0,,,,0,18,0,9,388826913769056,2.0,40.6,-567.4197,,,,,1575420000,,,,,,6,39.93
Raw,1781784010000,1028000000000,18,,-1465818200000000000,0,,,,0,3,0,9,388827923660071,2.0,42.6,408.0332,,,,,1575420000,,,,,,1,40.34
Raw,1781784010000,1028000000000,18,,-1465818200000000000,0,,,,0,6,0,9,388827927802633,2.0,48.0,-437.5737,,,,,1575420000,,,,,,1,40.34
Raw,1781784010000,1028000000000,18,,-1465818200000000000,0,,,,0,7,0,9,388827922623840,2.0,40.3,592.5489,,,,,1575420000,,,,,,1,40.34
Raw,1781784010000,1028000000000,18,,-1465818200000000000,0,,,,0,10,0,9,388827928351077,2.0,47.2,214.1684,,,,,1575420000,,,,,,1,40.34
Raw,1781784010000,1028000000000,18,,-1465818200000000000,0,,,,0,13,0,9,388827932460880,2.0,51.1,24.1629,,,,,1575420000,,,,,,1,40.34
Raw,1781784010000,1028000000000,18,,-1465818200000000000,0,,,,0,17,0,9,388827922820002,2.0,40.2,345.4033,,,,,1575420000,,,,,,1,40.34
Raw,1781784010000,1028000000000,18,,-1465818200000000000,0,,,,0,20,0,9,388827921368136,2.0,39.7,-682.7564,,,,,1575420000,,,,,,1,40.34
Raw,1781784010000,1028000000000,18,,-1465818200000000000,0,,,,0,3,0,9,388827908793145,2.0,37.8,-105.0298,,,,,1575420000,,,,,,6,40.34
Raw,1781784010000,1028000000000,18,,-1465818200000000000,0,,,,0,4,0,9,388827913189643,2.0,42.5,409.8250,,,,,1575420000,,,,,,6,40.34
Raw,1781784010000,1028000000000,18,,-1465818200000000000,0,,,,0,8,0,9,388827918779991,2.0,49.5,-162.2820,,,,,1575420000,,,,,,6,40.34
Raw,1781784010000,1028000000000,18,,-1465818200000000000,0,,,,0,9,0,9,388827914524874,2.0,42.4,230.0965,,,,,1575420000,,,,,,6,40.34
Raw,1781784010000,1028000000000,18,,-1465818200000000000,0,,,,0,13,0,9,388827916924434,2.0,46.6,0.4798,,,,,1575420000,,,,,,6,40.34
Raw,1781784010000,1028000000000,18,,-1465818200000000000,0,,,,0,18,0,9,388827913770952,2.0,40.8,-567.4294,,,,,1575420000,,,,,,6,40.34
Raw,1781784011000,1029000000000,18,,-1465818200000000000,0,,,,0,3,0,9,388828923658707,2.0,40.9,408.0782,,,,,1575420000,,,,,,1,40.02
Raw,1781784011000,1029000000000,18,,-1465818200000000000,0,,,,0,6,0,9,388828927804091,2.0,46.6,-437.4685,,,,,1575420000,,,,,,1,40.02
Raw,1781784011000,1029000000000,18,,-1465818200000000000,0,,,,0,7,0,9,388828922621865,2.0,41.4,592.5792,,,,,1575420000,,,,,,1,40.02
Raw,1781784011000,1029000000000,18,,-1465818200000000000,0,,,,0,10,0,9,388828928350361,2.0,48.3,214.2083,,,,,1575420000,,,,,,1,40.02
Raw,1781784011000,1029000000000,18,,-1465818200000000000,0,,,,0,13,0,9,388828932460801,2.0,51.6,24.2038,,,,,1575420000,,,,,,1,40.02
Raw,1781784011000,1029000000000,18,,-1465818200000000000,0,,,,0,17,0,9,388828922818847,2.0,40.7,345.5079,,,,,1575420000,,,,,,1,40.02
Raw,1781784011000,1029000000000,18,,-1465818200000000000,0,,,,0,20,0,9,388828921370414,2.0,39.3,-682.7559,,,,,1575420000,,,,,,1,40.02
Raw,1781784011000,1029000000000,18,,-1465818200000000000,0,,,,0,3,0,9,388828908793494,2.0,38.9,-104.9973,,,,,1575420000,,,,,,6,40.02
Raw,1781784011000,1029000000000,18,,-1465818200000000000,0,,,,0,4,0,9,388828913188275,2.0,42.9,409.8912,,,,,1575420000,,,,,,6,40.02
Raw,1781784011000,1029000000000,18,,-1465818200000000000,0,,,,0,8,0,9,388828918780531,2.0,49.9,-162.3429,,,,,1575420000,,,,,,6,40.02
Raw,1781784011000,1029000000000,18,,-1465818200000000000,0,,,,0,9,0,9,388828914524103,2.0,42.6,230.0723,,,,,1575420000,,,,,,6,40.02
Raw,1781784011000,1029000000000,18,,-1465818200000000000,0,,,,0,13,0,9,388828916924432,2.0,47.0,0.4823,,,,,1575420000,,,,,,6,40.02
Raw,1781784011000,1029000000000,18,,-1465818200000000000,0,,,,0,18,0,9,388828913772842,2.0,42.2,-567.3239,,,,,1575420000,,,,,,6,40.02
Raw,1781784012000,1030000000000,18,,-1465818200000000000,0,,,,0,3,0,9,388829923657345,2.0,41.6,408.1293,,,,,1575420000,,,,,,1,31.75
Raw,1781784012000,1030000000000,18,,-1465818200000000000,0,,,,0,6,0,9,388829927804903,2.0,50.2,-437.3957,,,,,1575420000,,,,,,1,31.75
Raw,1781784012000,1030000000000,18,,-1465818200000000000,0,,,,0,7,0,9,388829922619887,2.0,40.1,592.6381,,,,,1575420000,,,,,,1,31.75
Raw,1781784012000,1030000000000,18,,-1465818200000000000,0,,,,0,10,0,9,388829928350979,2.0,50.3,214.2177,,,,,1575420000,,,,,,1,31.75
Raw,1781784012000,1030000000000,18,,-1465818200000000000,0,,,,0,13,0,9,388829932460716,2.0,51.5,24.3064,,,,,1575420000,,,,,,1,31.75
Raw,1781784012000,1030000000000,18,,-1465818200000000000,0,,,,0,17,0,9,388829922819517,2.0,49.7,345.6138,,,,,1575420000,,,,,,1,31.75
Raw,1781784012000,1030000000000,18,,-1465818200000000000,0,,,,0,20,0,9,388829921372696,2.0,39.2,-682.7929,,,,,1575420000,,,,,,1,31.75
Raw,1781784012000,1030000000000,18,,-1465818200000000000,0,,,,0,3,0,9,388829908793843,2.0,37.1,-104.8524,,,,,1575420000,,,,,,6,31.75
Raw,1781784012000,1030000000000,18,,-1465818200000000000,0,,,,0,4,0,9,388829913185141,2.0,50.4,409.9389,,,,,1575420000,,,,,,6,31.75
Raw,1781784012000,1030000000000,18,,-1465818200000000000,0,,,,0,8,0,9,388829918781074,2.0,48.0,-162.2791,,,,,1575420000,,,,,,6,31.75
Raw,1781784012000,1030000000000,18,,-1465818200000000000,0,,,,0,9,0,9,388829914523333,2.0,44.8,230.0934,,,,,1575420000,,,,,,6,31.75
Raw,1781784012000,1030000000000,18,,-1465818200000000000,0,,,,0,13,0,9,388829916924431,2.0,46.0,0.6447,,,,,1575420000,,,,,,6,31.75
Raw,1781784012000,1030000000000,18,,-1465818200000000000,0,,,,0,18,0,9,388829913774731,2.0,43.3,-567.3605,,,,,1575420000,,,,,,6,31.75
Raw,1781784013000,1031000000000,18,,-1465818200000000000,0,,,,0,3,0,9,388830923655985,2.0,43.6,408.2091,,,,,1575420000,,,,,,1,32.40
Raw,1781784013000,1031000000000,18,,-1465818200000000000,0,,,,0,6,0,9,388830927806364,2.0,49.8,-437.3473,,,,,1575420000,,,,,,1,32.40
Raw,1781784013000,1031000000000,18,,-1465818200000000000,0,,,,0,7,0,9,388830922617910,2.0,40.2,592.7083,,,,,1575420000,,,,,,1,32.40
Raw,1781784013000,1031000000000,18,,-1465818200000000000,0,,,,0,10,0,9,388830928350267,2.0,50.0,214.1987,,,,,1575420000,,,,,,1,32.40
Raw,1781784013000,1031000000000,18,,-1465818200000000000,0,,,,0,13,0,9,388830932460637,2.0,50.5,24.3944,,,,,1575420000,,,,,,1,32.40
Raw,1781784013000,1031000000000,18,,-1465818200000000000,0,,,,0,17,0,9,388830922818364,2.0,49.8,345.7586,,,,,1575420000,,,,,,1,32.40
Raw,1781784013000,1031000000000,18,,-1465818200000000000,0,,,,0,20,0,9,388830921374973,2.0,39.4,-682.7436,,,,,1575420000,,,,,,1,32.40
Raw,1781784013000,1031000000000,18,,-1465818200000000000,0,,,,0,3,0,9,388830908794194,2.0,39.6,-104.7358,,,,,1575420000,,,,,,6,32.40
Raw,1781784013000,1031000000000,18,,-1465818200000000000,0,,,,0,4,0,9,388830913183771,2.0,49.8,409.9441,,,,,1575420000,,,,,,6,32.40
Raw,1781784013000,1031000000000,18,,-1465818200000000000,0,,,,0,8,0,9,388830918781616,2.0,49.0,-162.3186,,,,,1575420000,,,,,,6,32.40
Raw,1781784013000,1031000000000,18,,-1465818200000000000,0,,,,0,9,0,9,388830914522571,2.0,43.8,230.1246,,,,,1575420000,,,,,,6,32.40
Raw,1781784013000,1031000000000,18,,-1465818200000000000,0,,,,0,13,0,9,388830916924425,2.0,46.0,0.7378,,,,,1575420000,,,,,,6,32.40
Raw,1781784013000,1031000000000,18,,-1465818200000000000,0,,,,0,18,0,9,388830913776629,2.0,41.2,-567.3258,,,,,1575420000,,,,,,6,32.40
Raw,1781784014000,1032000000000,18,,-1465818200000000000,0,,,,0,3,0,9,388831923654623,2.0,42.5,408.2445,,,,,1575420000,,,,,,1,31.93
Raw,1781784014000,1032000000000,18,,-1465818200000000000,0,,,,0,6,0,9,388831927807821,2.0,50.4,-437.2436,,,,,1575420000,,,,,,1,31.93
Raw,1781784014000,1032000000000,18,,-1465818200000000000,0,,,,0,7,0,9,388831922615935,2.0,41.2,592.7498,,,,,1575420000,,,,,,1,31.93
Raw,1781784014000,1032000000000,18,,-1465818200000000000,0,,,,0,10,0,9,388831928349550,2.0,50.5,214.2934,,,,,1575420000,,,,,,1,31.93
Raw,1781784014000,1032000000000,18,,-1465818200000000000,0,,,,0,13,0,9,388831932460559,2.0,51.0,24.5285,,,,,1575420000,,,,,,1,31.93
Raw,1781784014000,1032000000000,18,,-1465818200000000000,0,,,,0,17,0,9,388831922817210,2.0,49.7,345.8674,,,,,1575420000,,,,,,1,31.93
Raw,1781784014000,1032000000000,18,,-1465818200000000000,0,,,,0,20,0,9,388831921377244,2.0,39.8,-682.7043,,,,,1575420000,,,,,,1,31.93
Raw,1781784014000,1032000000000,18,,-1465818200000000000,0,,,,0,3,0,9,388831908794543,2.0,37.8,-104.6481,,,,,1575420000,,,,,,6,31.93
Raw,1781784014000,1032000000000,18,,-1465818200000000000,0,,,,0,4,0,9,388831913182403,2.0,49.8,409.9864,,,,,1575420000,,,,,,6,31.93
Raw,1781784014000,1032000000000,18,,-1465818200000000000,0,,,,0,8,0,9,388831918782158,2.0,48.0,-162.3511,,,,,1575420000,,,,,,6,31.93
Raw,1781784014000,1032000000000,18,,-1465818200000000000,0,,,,0,9,0,9,388831914521802,2.0,44.3,230.1099,,,,,1575420000,,,,,,6,31.93
Raw,1781784014000,1032000000000,18,,-1465818200000000000,0,,,,0,13,0,9,388831916924422,2.0,43.4,0.8490,,,,,1575420000,,,,,,6,31.93
Raw,1781784014000,1032000000000,18,,-1465818200000000000,0,,,,0,18,0,9,388831913778519,2.0,40.0,-567.3243,,,,,1575420000,,,,,,6,31.93
Raw,1781784015000,1033000000000,18,,-1465818200000000000,0,,,,0,3,0,9,388832923653259,2.0,41.0,408.3354,,,,,1575420000,,,,,,1,31.63
Raw,1781784015000,1033000000000,18,,-1465818200000000000,0,,,,0,6,0,9,388832927809278,2.0,49.6,-437.2267,,,,,1575420000,,,,,,1,31.63
Raw,1781784015000,1033000000000,18,,-1465818200000000000,0,,,,0,7,0,9,388832922613956,2.0,41.0,592.7799,,,,,1575420000,,,,,,1,31.63
Raw,1781784015000,1033000000000,18,,-1465818200000000000,0,,,,0,10,0,9,388832928348837,2.0,50.2,214.2930,,,,,1575420000,,,,,,1,31.63
Raw,1781784015000,1033000000000,18,,-1465818200000000000,0,,,,0,13,0,9,388832932460475,2.0,51.8,24.6252,,,,,1575420000,,,,,,1,31.63
Raw,1781784015000,1033000000000,18,,-1465818200000000000,0,,,,0,17,0,9,388832922816056,2.0,50.0,345.9383,,,,,1575420000,,,,,,1,31.63
Raw,1781784015000,1033000000000,18,,-1465818200000000000,0,,,,0,20,0,9,388832921379523,2.0,38.4,-682.7183,,,,,1575420000,,,,,,1,31.63
Raw,1781784015000,1033000000000,18,,-1465818200000000000,0,,,,0,3,0,9,388832908794892,2.0,37.6,-104.6364,,,,,1575420000,,,,,,6,31.63
Raw,1781784015000,1033000000000,18,,-1465818200000000000,0,,,,0,4,0,9,388832913181035,2.0,50.0,410.0484,,,,,1575420000,,,,,,6,31.63
Raw,1781784015000,1033000000000,18,,-1465818200000000000,0,,,,0,8,0,9,388832918782700,2.0,48.3,-162.2979,,,,,1575420000,,,,,,6,31.63
Raw,1781784015000,1033000000000,18,,-1465818200000000000,0,,,,0,9,0,9,388832914521034,2.0,43.8,230.1114,,,,,1575420000,,,,,,6,31.63
Raw,1781784015000,1033000000000,18,,-1465818200000000000,0,,,,0,13,0,9,388832916924420,2.0,46.6,0.8972,,,,,1575420000,,,,,,6,31.63
Raw,1781784015000,1033000000000,18,,-1465818200000000000,0,,,,0,18,0,9,388832913780412,2.0,40.8,-567.2798,,,,,1575420000,,,,,,6,31.63
Raw,1781784016000,1034000000000,18,,-1465818200000000000,0,,,,0,3,0,9,388833923651898,2.0,42.2,408.3566,,,,,1575420000,,,,,,1,31.98
Raw,1781784016000,1034000000000,18,,-1465818200000000000,0,,,,0,6,0,9,388833927810739,2.0,50.2,-437.1569,,,,,1575420000,,,,,,1,31.98
Raw,1781784016000,1034000000000,18,,-1465818200000000000,0,,,,0,7,0,9,388833922611977,2.0,40.3,592.8213,,,,,1575420000,,,,,,1,31.98
Raw,1781784016000,1034000000000,18,,-1465818200000000000,0,,,,0,10,0,9,388833928348125,2.0,49.3,214.3013,,,,,1575420000,,,,,,1,31.98
Raw,1781784016000,1034000000000,18,,-1465818200000000000,0,,,,0,13,0,9,388833932460391,2.0,51.3,24.6551,,,,,1575420000,,,,,,1,31.98
